<?xml version="1.0" encoding="UTF-8"?>
<response xmlns:xsd="http://www.w3.org/2001/XMLSchema" xmlns:xsi="http://www.w3.org/2001/XMLSchema-instance" version="1.1" xsi:noNamespaceSchemaLocation="https://aviationweather.gov/data/schema/station1_1.xsd">
  <request_index>1712103302</request_index>
  <data_source name="stations" />
  <request type="retrieve" />
  <errors />
  <warnings />
  <data num_results="9719">
    <Station>
      <station_id>32012</station_id>
      <latitude>19.691</latitude>
      <longitude>-85.567</longitude>
      <elevation_m>0</elevation_m>
      <site>Woods Hole Stratus Wave Station</site>
      <state>--</state>
      <country>--</country>
    </Station>
    <Station>
      <station_id>41001</station_id>
      <latitude>34.561</latitude>
      <longitude>-72.631</longitude>
      <elevation_m>0</elevation_m>
      <site>Cape Hatteras 150E</site>
      <state>--</state>
      <country>--</country>
    </Station>
    <Station>
      <station_id>41002</station_id>
      <latitude>31.862</latitude>
      <longitude>-74.835</longitude>
      <elevation_m>0</elevation_m>
      <site>Charleston 250E</site>
      <state>--</state>
      <country>US</country>
    </Station>
    <Station>
      <station_id>41004</station_id>
      <latitude>32.501</latitude>
      <longitude>-79.099</longitude>
      <elevation_m>0</elevation_m>
      <site>Charleston 41SE</site>
      <state>SC</state>
      <country>US</country>
    </Station>
    <Station>
      <station_id>41008</station_id>
      <latitude>31.402</latitude>
      <longitude>-80.869</longitude>
      <elevation_m>4</elevation_m>
      <site>Grays Reef</site>
      <state>GA</state>
      <country>US</country>
    </Station>
    <Station>
      <station_id>41010</station_id>
      <latitude>28.906</latitude>
      <longitude>-78.471</longitude>
      <elevation_m>0</elevation_m>
      <site>Cape Canaveral 120E</site>
      <state>--</state>
      <country>US</country>
    </Station>
    <Station>
      <station_id>41012</station_id>
      <latitude>30.042</latitude>
      <longitude>-80.534</longitude>
      <elevation_m>0</elevation_m>
      <site>St Augustine</site>
      <state>--</state>
      <country>US</country>
    </Station>
    <Station>
      <station_id>41013</station_id>
      <latitude>33.436</latitude>
      <longitude>-77.743</longitude>
      <elevation_m>0</elevation_m>
      <site>Frying Pan Shoals</site>
      <state>--</state>
      <country>--</country>
    </Station>
    <Station>
      <station_id>41024</station_id>
      <latitude>33.848</latitude>
      <longitude>-78.489</longitude>
      <elevation_m>0</elevation_m>
      <site>Sunset Nearshore</site>
      <state>--</state>
      <country>US</country>
    </Station>
    <Station>
      <station_id>41025</station_id>
      <latitude>35.006</latitude>
      <longitude>-75.402</longitude>
      <elevation_m>0</elevation_m>
      <site>Diamond Shoals</site>
      <state>--</state>
      <country>US</country>
    </Station>
    <Station>
      <station_id>41029</station_id>
      <latitude>32.81</latitude>
      <longitude>-79.63</longitude>
      <elevation_m>0</elevation_m>
      <site>Capers Nearshore</site>
      <state>--</state>
      <country>US</country>
    </Station>
    <Station>
      <station_id>41033</station_id>
      <latitude>32.28</latitude>
      <longitude>-80.41</longitude>
      <elevation_m>3</elevation_m>
      <site>Fripp Nearshore</site>
      <state>--</state>
      <country>US</country>
    </Station>
    <Station>
      <station_id>41036</station_id>
      <latitude>34.206</latitude>
      <longitude>-76.952</longitude>
      <elevation_m>0</elevation_m>
      <site>Onslow Bay Outer</site>
      <state>--</state>
      <country>--</country>
    </Station>
    <Station>
      <station_id>41037</station_id>
      <latitude>33.991</latitude>
      <longitude>-77.36</longitude>
      <elevation_m>0</elevation_m>
      <site>Wrightsville 27SE</site>
      <state>--</state>
      <country>US</country>
    </Station>
    <Station>
      <station_id>41038</station_id>
      <latitude>34.141</latitude>
      <longitude>-77.715</longitude>
      <elevation_m>0</elevation_m>
      <site>Wrightsville 5SE</site>
      <state>--</state>
      <country>US</country>
    </Station>
    <Station>
      <station_id>41040</station_id>
      <latitude>14.477</latitude>
      <longitude>-53.008</longitude>
      <elevation_m>0</elevation_m>
      <site>W Atlantic</site>
      <state>--</state>
      <country>--</country>
    </Station>
    <Station>
      <station_id>41041</station_id>
      <latitude>14.175</latitude>
      <longitude>-45.998</longitude>
      <elevation_m>0</elevation_m>
      <site>Middle Atlantic</site>
      <state>--</state>
      <country>--</country>
    </Station>
    <Station>
      <station_id>41043</station_id>
      <latitude>21.061</latitude>
      <longitude>-64.966</longitude>
      <elevation_m>4</elevation_m>
      <site>SW Atlantic</site>
      <state>--</state>
      <country>--</country>
    </Station>
    <Station>
      <station_id>41044</station_id>
      <latitude>21.639</latitude>
      <longitude>-58.614</longitude>
      <elevation_m>0</elevation_m>
      <site>Atlantic South</site>
      <state>--</state>
      <country>--</country>
    </Station>
    <Station>
      <station_id>41046</station_id>
      <latitude>23.838</latitude>
      <longitude>-68.333</longitude>
      <elevation_m>0</elevation_m>
      <site>E Bahamas</site>
      <state>--</state>
      <country>--</country>
    </Station>
    <Station>
      <station_id>41047</station_id>
      <latitude>27.517</latitude>
      <longitude>-71.483</longitude>
      <elevation_m>0</elevation_m>
      <site>NE Bahamas</site>
      <state>--</state>
      <country>--</country>
    </Station>
    <Station>
      <station_id>41048</station_id>
      <latitude>31.95</latitude>
      <longitude>-69.497</longitude>
      <elevation_m>0</elevation_m>
      <site>W Bermuda</site>
      <state>--</state>
      <country>--</country>
    </Station>
    <Station>
      <station_id>41049</station_id>
      <latitude>27.5</latitude>
      <longitude>-63</longitude>
      <elevation_m>0</elevation_m>
      <site>Atlantic South</site>
      <state>--</state>
      <country>--</country>
    </Station>
    <Station>
      <station_id>41051</station_id>
      <latitude>18.257</latitude>
      <longitude>-65.004</longitude>
      <elevation_m>4</elevation_m>
      <site>St Thomas South</site>
      <state>--</state>
      <country>VI</country>
    </Station>
    <Station>
      <station_id>41052</station_id>
      <latitude>18.251</latitude>
      <longitude>-64.763</longitude>
      <elevation_m>0</elevation_m>
      <site>S St John</site>
      <state>--</state>
      <country>--</country>
    </Station>
    <Station>
      <station_id>41053</station_id>
      <latitude>18.476</latitude>
      <longitude>-66.099</longitude>
      <elevation_m>0</elevation_m>
      <site>San Juan</site>
      <state>--</state>
      <country>PR</country>
    </Station>
    <Station>
      <station_id>41056</station_id>
      <latitude>18.259</latitude>
      <longitude>-65.457</longitude>
      <elevation_m>0</elevation_m>
      <site>Vieques Island</site>
      <state>--</state>
      <country>PR</country>
    </Station>
    <Station>
      <station_id>41060</station_id>
      <latitude>14.825</latitude>
      <longitude>-51.017</longitude>
      <elevation_m>0</elevation_m>
      <site>Woods Hole NW Trop</site>
      <state>--</state>
      <country>US</country>
    </Station>
    <Station>
      <station_id>41101</station_id>
      <latitude>14.6</latitude>
      <longitude>-56.201</longitude>
      <elevation_m>0</elevation_m>
      <site>E Martinique</site>
      <state>--</state>
      <country>--</country>
    </Station>
    <Station>
      <station_id>41108</station_id>
      <latitude>33.721</latitude>
      <longitude>-78.015</longitude>
      <elevation_m>4</elevation_m>
      <site>Wilmington Harbor</site>
      <state>NC</state>
      <country>US</country>
    </Station>
    <Station>
      <station_id>41109</station_id>
      <latitude>34.483</latitude>
      <longitude>-77.3</longitude>
      <elevation_m>0</elevation_m>
      <site>New River Inlet</site>
      <state>--</state>
      <country>US</country>
    </Station>
    <Station>
      <station_id>41110</station_id>
      <latitude>34.141</latitude>
      <longitude>-77.709</longitude>
      <elevation_m>0</elevation_m>
      <site>Masonboro Inlet</site>
      <state>NC</state>
      <country>US</country>
    </Station>
    <Station>
      <station_id>41112</station_id>
      <latitude>30.719</latitude>
      <longitude>-81.293</longitude>
      <elevation_m>0</elevation_m>
      <site>Fernandina Beach</site>
      <state>FL</state>
      <country>US</country>
    </Station>
    <Station>
      <station_id>41113</station_id>
      <latitude>28.4</latitude>
      <longitude>-80.53</longitude>
      <elevation_m>0</elevation_m>
      <site>Cape Canaveral Nears</site>
      <state>FL</state>
      <country>US</country>
    </Station>
    <Station>
      <station_id>41114</station_id>
      <latitude>27.551</latitude>
      <longitude>-80.225</longitude>
      <elevation_m>0</elevation_m>
      <site>Fort Pierce</site>
      <state>FL</state>
      <country>US</country>
    </Station>
    <Station>
      <station_id>41115</station_id>
      <latitude>18.376</latitude>
      <longitude>-67.28</longitude>
      <elevation_m>0</elevation_m>
      <site>Rincon</site>
      <state>--</state>
      <country>PR</country>
    </Station>
    <Station>
      <station_id>41300</station_id>
      <latitude>15.85</latitude>
      <longitude>-57.47</longitude>
      <elevation_m>4</elevation_m>
      <site>West Indies</site>
      <state>--</state>
      <country>--</country>
    </Station>
    <Station>
      <station_id>42001</station_id>
      <latitude>25.888</latitude>
      <longitude>-89.658</longitude>
      <elevation_m>0</elevation_m>
      <site>Mid Gulf</site>
      <state>--</state>
      <country>--</country>
    </Station>
    <Station>
      <station_id>42002</station_id>
      <latitude>25.79</latitude>
      <longitude>-93.666</longitude>
      <elevation_m>0</elevation_m>
      <site>Brownsville 207E</site>
      <state>--</state>
      <country>US</country>
    </Station>
    <Station>
      <station_id>42003</station_id>
      <latitude>26.044</latitude>
      <longitude>-85.612</longitude>
      <elevation_m>0</elevation_m>
      <site>Naples 208W</site>
      <state>--</state>
      <country>US</country>
    </Station>
    <Station>
      <station_id>42012</station_id>
      <latitude>30.065</latitude>
      <longitude>-87.555</longitude>
      <elevation_m>0</elevation_m>
      <site>Orange Beach</site>
      <state>--</state>
      <country>US</country>
    </Station>
    <Station>
      <station_id>42013</station_id>
      <latitude>27.169</latitude>
      <longitude>-82.926</longitude>
      <elevation_m>4</elevation_m>
      <site>Navy-2</site>
      <state>FL</state>
      <country>US</country>
    </Station>
    <Station>
      <station_id>42019</station_id>
      <latitude>27.913</latitude>
      <longitude>-95.353</longitude>
      <elevation_m>0</elevation_m>
      <site>Freeport 60S</site>
      <state>--</state>
      <country>US</country>
    </Station>
    <Station>
      <station_id>42020</station_id>
      <latitude>26.966</latitude>
      <longitude>-96.695</longitude>
      <elevation_m>0</elevation_m>
      <site>Corpus Christi 50SE</site>
      <state>--</state>
      <country>US</country>
    </Station>
    <Station>
      <station_id>42023</station_id>
      <latitude>26.064</latitude>
      <longitude>-83.074</longitude>
      <elevation_m>0</elevation_m>
      <site>West Florida Bouy</site>
      <state>--</state>
      <country>US</country>
    </Station>
    <Station>
      <station_id>42035</station_id>
      <latitude>29.232</latitude>
      <longitude>-94.413</longitude>
      <elevation_m>0</elevation_m>
      <site>Galveston 22E</site>
      <state>--</state>
      <country>US</country>
    </Station>
    <Station>
      <station_id>42036</station_id>
      <latitude>28.5</latitude>
      <longitude>-84.517</longitude>
      <elevation_m>0</elevation_m>
      <site>W Tampa</site>
      <state>--</state>
      <country>US</country>
    </Station>
    <Station>
      <station_id>42039</station_id>
      <latitude>28.791</latitude>
      <longitude>-86.008</longitude>
      <elevation_m>0</elevation_m>
      <site>Pensacola 115ESE</site>
      <state>FL</state>
      <country>US</country>
    </Station>
    <Station>
      <station_id>42040</station_id>
      <latitude>29.212</latitude>
      <longitude>-88.207</longitude>
      <elevation_m>0</elevation_m>
      <site>Luke Offshore</site>
      <state>--</state>
      <country>--</country>
    </Station>
    <Station>
      <station_id>42055</station_id>
      <latitude>22.203</latitude>
      <longitude>-94</longitude>
      <elevation_m>0</elevation_m>
      <site>Bay of Campeche</site>
      <state>--</state>
      <country>--</country>
    </Station>
    <Station>
      <station_id>42056</station_id>
      <latitude>19.802</latitude>
      <longitude>-84.857</longitude>
      <elevation_m>0</elevation_m>
      <site>Yucatan Basin</site>
      <state>--</state>
      <country>--</country>
    </Station>
    <Station>
      <station_id>42057</station_id>
      <latitude>17.002</latitude>
      <longitude>-81.501</longitude>
      <elevation_m>0</elevation_m>
      <site>W Caribbean</site>
      <state>--</state>
      <country>--</country>
    </Station>
    <Station>
      <station_id>42058</station_id>
      <latitude>14.923</latitude>
      <longitude>-74.918</longitude>
      <elevation_m>0</elevation_m>
      <site>Central Caribbean</site>
      <state>--</state>
      <country>--</country>
    </Station>
    <Station>
      <station_id>42059</station_id>
      <latitude>15.054</latitude>
      <longitude>-67.472</longitude>
      <elevation_m>0</elevation_m>
      <site>Eastern Caribbean</site>
      <state>--</state>
      <country>--</country>
    </Station>
    <Station>
      <station_id>42060</station_id>
      <latitude>16.333</latitude>
      <longitude>-65.5</longitude>
      <elevation_m>0</elevation_m>
      <site>Eastern Caribbean</site>
      <state>--</state>
      <country>--</country>
    </Station>
    <Station>
      <station_id>42065</station_id>
      <latitude>14.926</latitude>
      <longitude>-75.046</longitude>
      <elevation_m>0</elevation_m>
      <site>Central Caribbean</site>
      <state>--</state>
      <country>--</country>
    </Station>
    <Station>
      <station_id>42085</station_id>
      <latitude>17.86</latitude>
      <longitude>-66.524</longitude>
      <elevation_m>0</elevation_m>
      <site>Ponce SE</site>
      <state>--</state>
      <country>PR</country>
    </Station>
    <Station>
      <station_id>42099</station_id>
      <latitude>29.3</latitude>
      <longitude>-87.5</longitude>
      <elevation_m>0</elevation_m>
      <site>Offshore St Petersburg</site>
      <state>--</state>
      <country>--</country>
    </Station>
    <Station>
      <station_id>42360</station_id>
      <latitude>26.7</latitude>
      <longitude>-90.46</longitude>
      <elevation_m>10</elevation_m>
      <site>BW Pioneer Bouy</site>
      <state>--</state>
      <country>--</country>
    </Station>
    <Station>
      <station_id>42362</station_id>
      <latitude>28.16</latitude>
      <longitude>-89.22</longitude>
      <elevation_m>30</elevation_m>
      <site>Mississippi Canyon</site>
      <state>--</state>
      <country>--</country>
    </Station>
    <Station>
      <station_id>42363</station_id>
      <latitude>28.16</latitude>
      <longitude>-89.22</longitude>
      <elevation_m>37</elevation_m>
      <site>Mississippi Canyon</site>
      <state>--</state>
      <country>US</country>
    </Station>
    <Station>
      <station_id>42364</station_id>
      <latitude>29.06</latitude>
      <longitude>-88.09</longitude>
      <elevation_m>30</elevation_m>
      <site>Viosca Knoll</site>
      <state>--</state>
      <country>--</country>
    </Station>
    <Station>
      <station_id>44005</station_id>
      <latitude>43.204</latitude>
      <longitude>-69.128</longitude>
      <elevation_m>0</elevation_m>
      <site>Gulf of Maine</site>
      <state>--</state>
      <country>--</country>
    </Station>
    <Station>
      <station_id>44007</station_id>
      <latitude>43.531</latitude>
      <longitude>-70.144</longitude>
      <elevation_m>0</elevation_m>
      <site>Portland 12SE</site>
      <state>--</state>
      <country>US</country>
    </Station>
    <Station>
      <station_id>44008</station_id>
      <latitude>40.502</latitude>
      <longitude>-69.247</longitude>
      <elevation_m>0</elevation_m>
      <site>Nantucket 54SE</site>
      <state>--</state>
      <country>US</country>
    </Station>
    <Station>
      <station_id>44009</station_id>
      <latitude>38.464</latitude>
      <longitude>-74.702</longitude>
      <elevation_m>0</elevation_m>
      <site>Delaware Bay</site>
      <state>--</state>
      <country>US</country>
    </Station>
    <Station>
      <station_id>44011</station_id>
      <latitude>41.105</latitude>
      <longitude>-66.6</longitude>
      <elevation_m>0</elevation_m>
      <site>Georges Bank</site>
      <state>--</state>
      <country>US</country>
    </Station>
    <Station>
      <station_id>44013</station_id>
      <latitude>42.346</latitude>
      <longitude>-70.651</longitude>
      <elevation_m>0</elevation_m>
      <site>Boston 16E</site>
      <state>--</state>
      <country>US</country>
    </Station>
    <Station>
      <station_id>44014</station_id>
      <latitude>36.611</latitude>
      <longitude>-74.842</longitude>
      <elevation_m>0</elevation_m>
      <site>Virginia Beach 64E</site>
      <state>--</state>
      <country>US</country>
    </Station>
    <Station>
      <station_id>44017</station_id>
      <latitude>40.694</latitude>
      <longitude>-72.048</longitude>
      <elevation_m>4</elevation_m>
      <site>Montauk Point</site>
      <state>NY</state>
      <country>US</country>
    </Station>
    <Station>
      <station_id>44020</station_id>
      <latitude>41.443</latitude>
      <longitude>-70.186</longitude>
      <elevation_m>0</elevation_m>
      <site>Nantucket Sound</site>
      <state>--</state>
      <country>US</country>
    </Station>
    <Station>
      <station_id>44022</station_id>
      <latitude>40.88</latitude>
      <longitude>-73.73</longitude>
      <elevation_m>0</elevation_m>
      <site>Execution Rocks</site>
      <state>--</state>
      <country>US</country>
    </Station>
    <Station>
      <station_id>44024</station_id>
      <latitude>42.312</latitude>
      <longitude>-65.927</longitude>
      <elevation_m>0</elevation_m>
      <site>Northeast Channel</site>
      <state>--</state>
      <country>--</country>
    </Station>
    <Station>
      <station_id>44025</station_id>
      <latitude>40.25</latitude>
      <longitude>-73.167</longitude>
      <elevation_m>0</elevation_m>
      <site>Long Island</site>
      <state>--</state>
      <country>US</country>
    </Station>
    <Station>
      <station_id>44027</station_id>
      <latitude>44.273</latitude>
      <longitude>-67.314</longitude>
      <elevation_m>0</elevation_m>
      <site>Jonesport</site>
      <state>--</state>
      <country>US</country>
    </Station>
    <Station>
      <station_id>44029</station_id>
      <latitude>42.52</latitude>
      <longitude>-70.57</longitude>
      <elevation_m>0</elevation_m>
      <site>Massachusetts Bay</site>
      <state>--</state>
      <country>US</country>
    </Station>
    <Station>
      <station_id>44030</station_id>
      <latitude>43.183</latitude>
      <longitude>-70.418</longitude>
      <elevation_m>0</elevation_m>
      <site>West Maine Shelf</site>
      <state>--</state>
      <country>US</country>
    </Station>
    <Station>
      <station_id>44032</station_id>
      <latitude>43.715</latitude>
      <longitude>-69.358</longitude>
      <elevation_m>0</elevation_m>
      <site>Central Maine Shelf</site>
      <state>--</state>
      <country>US</country>
    </Station>
    <Station>
      <station_id>44033</station_id>
      <latitude>44.06</latitude>
      <longitude>-69</longitude>
      <elevation_m>0</elevation_m>
      <site>West Penobscot Bay</site>
      <state>--</state>
      <country>US</country>
    </Station>
    <Station>
      <station_id>44034</station_id>
      <latitude>44.11</latitude>
      <longitude>-68.11</longitude>
      <elevation_m>0</elevation_m>
      <site>Bouy I0103</site>
      <state>--</state>
      <country>--</country>
    </Station>
    <Station>
      <station_id>44037</station_id>
      <latitude>43.484</latitude>
      <longitude>-67.883</longitude>
      <elevation_m>0</elevation_m>
      <site>Jordan Basin</site>
      <state>--</state>
      <country>US</country>
    </Station>
    <Station>
      <station_id>44039</station_id>
      <latitude>41.138</latitude>
      <longitude>-72.655</longitude>
      <elevation_m>0</elevation_m>
      <site>Central Long Isl Sound</site>
      <state>--</state>
      <country>--</country>
    </Station>
    <Station>
      <station_id>44040</station_id>
      <latitude>40.956</latitude>
      <longitude>-73.58</longitude>
      <elevation_m>0</elevation_m>
      <site>W Long Island Sound</site>
      <state>--</state>
      <country>US</country>
    </Station>
    <Station>
      <station_id>44041</station_id>
      <latitude>37.204</latitude>
      <longitude>-76.777</longitude>
      <elevation_m>4</elevation_m>
      <site>Jamestown</site>
      <state>VA</state>
      <country>US</country>
    </Station>
    <Station>
      <station_id>44042</station_id>
      <latitude>38.033</latitude>
      <longitude>-76.336</longitude>
      <elevation_m>0</elevation_m>
      <site>Potomax</site>
      <state>MD</state>
      <country>US</country>
    </Station>
    <Station>
      <station_id>44056</station_id>
      <latitude>36.2</latitude>
      <longitude>-75.714</longitude>
      <elevation_m>17</elevation_m>
      <site>Duck FRF</site>
      <state>--</state>
      <country>US</country>
    </Station>
    <Station>
      <station_id>44057</station_id>
      <latitude>39.544</latitude>
      <longitude>-76.075</longitude>
      <elevation_m>4</elevation_m>
      <site>Susquehanna</site>
      <state>MD</state>
      <country>US</country>
    </Station>
    <Station>
      <station_id>44058</station_id>
      <latitude>37.552</latitude>
      <longitude>-76.251</longitude>
      <elevation_m>3</elevation_m>
      <site>Stingray Point</site>
      <state>VA</state>
      <country>US</country>
    </Station>
    <Station>
      <station_id>44059</station_id>
      <latitude>36.846</latitude>
      <longitude>-76.298</longitude>
      <elevation_m>4</elevation_m>
      <site>Norfolk</site>
      <state>VA</state>
      <country>US</country>
    </Station>
    <Station>
      <station_id>44060</station_id>
      <latitude>41.263</latitude>
      <longitude>-72.067</longitude>
      <elevation_m>0</elevation_m>
      <site>Eastern Long Isl Sound</site>
      <state>--</state>
      <country>US</country>
    </Station>
    <Station>
      <station_id>44061</station_id>
      <latitude>38.785</latitude>
      <longitude>-77.036</longitude>
      <elevation_m>3</elevation_m>
      <site>Upper Potomac</site>
      <state>MD</state>
      <country>US</country>
    </Station>
    <Station>
      <station_id>44062</station_id>
      <latitude>38.556</latitude>
      <longitude>-76.415</longitude>
      <elevation_m>0</elevation_m>
      <site>Goose Reef</site>
      <state>MD</state>
      <country>US</country>
    </Station>
    <Station>
      <station_id>44063</station_id>
      <latitude>38.963</latitude>
      <longitude>-76.448</longitude>
      <elevation_m>0</elevation_m>
      <site>Annapolis</site>
      <state>MD</state>
      <country>US</country>
    </Station>
    <Station>
      <station_id>44064</station_id>
      <latitude>36.974</latitude>
      <longitude>-76.046</longitude>
      <elevation_m>0</elevation_m>
      <site>First Landing</site>
      <state>VA</state>
      <country>US</country>
    </Station>
    <Station>
      <station_id>44065</station_id>
      <latitude>40.369</latitude>
      <longitude>-73.703</longitude>
      <elevation_m>0</elevation_m>
      <site>New York Harbor</site>
      <state>--</state>
      <country>--</country>
    </Station>
    <Station>
      <station_id>44066</station_id>
      <latitude>40.208</latitude>
      <longitude>-38.909</longitude>
      <elevation_m>0</elevation_m>
      <site>Texas Tower 4</site>
      <state>--</state>
      <country>US</country>
    </Station>
    <Station>
      <station_id>44067</station_id>
      <latitude>38.368</latitude>
      <longitude>-76.996</longitude>
      <elevation_m>2</elevation_m>
      <site>Potomac River</site>
      <state>--</state>
      <country>US</country>
    </Station>
    <Station>
      <station_id>44095</station_id>
      <latitude>35.75</latitude>
      <longitude>-75.33</longitude>
      <elevation_m>0</elevation_m>
      <site>Oregon Inlet</site>
      <state>--</state>
      <country>US</country>
    </Station>
    <Station>
      <station_id>44096</station_id>
      <latitude>37.023</latitude>
      <longitude>-75.81</longitude>
      <elevation_m>0</elevation_m>
      <site>Cape Charles</site>
      <state>VA</state>
      <country>US</country>
    </Station>
    <Station>
      <station_id>44097</station_id>
      <latitude>40.981</latitude>
      <longitude>-71.117</longitude>
      <elevation_m>0</elevation_m>
      <site>Block Island</site>
      <state>RI</state>
      <country>US</country>
    </Station>
    <Station>
      <station_id>44098</station_id>
      <latitude>42.801</latitude>
      <longitude>-70.169</longitude>
      <elevation_m>0</elevation_m>
      <site>Jeffreys Ledge</site>
      <state>--</state>
      <country>US</country>
    </Station>
    <Station>
      <station_id>44099</station_id>
      <latitude>36.901</latitude>
      <longitude>-75.72</longitude>
      <elevation_m>0</elevation_m>
      <site>Cape Henry</site>
      <state>VA</state>
      <country>US</country>
    </Station>
    <Station>
      <station_id>44100</station_id>
      <latitude>36.258</latitude>
      <longitude>-75.591</longitude>
      <elevation_m>0</elevation_m>
      <site>Duck FRF 26M</site>
      <state>--</state>
      <country>US</country>
    </Station>
    <Station>
      <station_id>44137</station_id>
      <latitude>42.23</latitude>
      <longitude>-62.02</longitude>
      <elevation_m>0</elevation_m>
      <site>East Scotia Slope</site>
      <state>--</state>
      <country>CA</country>
    </Station>
    <Station>
      <station_id>44139</station_id>
      <latitude>44.24</latitude>
      <longitude>-57.101</longitude>
      <elevation_m>0</elevation_m>
      <site>Banqureau Banks</site>
      <state>--</state>
      <country>CA</country>
    </Station>
    <Station>
      <station_id>44140</station_id>
      <latitude>42.87</latitude>
      <longitude>-51.47</longitude>
      <elevation_m>0</elevation_m>
      <site>Tail of the Bank</site>
      <state>--</state>
      <country>CA</country>
    </Station>
    <Station>
      <station_id>44141</station_id>
      <latitude>42.99</latitude>
      <longitude>-57.96</longitude>
      <elevation_m>0</elevation_m>
      <site>Laurentian Fan</site>
      <state>--</state>
      <country>CA</country>
    </Station>
    <Station>
      <station_id>44150</station_id>
      <latitude>42.5</latitude>
      <longitude>-64.02</longitude>
      <elevation_m>0</elevation_m>
      <site>La Havre Bank</site>
      <state>--</state>
      <country>CA</country>
    </Station>
    <Station>
      <station_id>44172</station_id>
      <latitude>44.5</latitude>
      <longitude>-63.408</longitude>
      <elevation_m>0</elevation_m>
      <site>Halifax Harbor</site>
      <state>NS</state>
      <country>CA</country>
    </Station>
    <Station>
      <station_id>44251</station_id>
      <latitude>46.44</latitude>
      <longitude>-53.39</longitude>
      <elevation_m>0</elevation_m>
      <site>Nickerson Bay</site>
      <state>--</state>
      <country>CA</country>
    </Station>
    <Station>
      <station_id>44255</station_id>
      <latitude>47.27</latitude>
      <longitude>-57.34</longitude>
      <elevation_m>0</elevation_m>
      <site>NE Burgeo Bank</site>
      <state>--</state>
      <country>CA</country>
    </Station>
    <Station>
      <station_id>44258</station_id>
      <latitude>44.5</latitude>
      <longitude>-63.4</longitude>
      <elevation_m>0</elevation_m>
      <site>Halifax Harbor</site>
      <state>--</state>
      <country>CA</country>
    </Station>
    <Station>
      <station_id>45001</station_id>
      <latitude>48.064</latitude>
      <longitude>-87.777</longitude>
      <elevation_m>183</elevation_m>
      <site>Mid Superior</site>
      <state>--</state>
      <country>--</country>
    </Station>
    <Station>
      <station_id>45002</station_id>
      <latitude>45.344</latitude>
      <longitude>-86.411</longitude>
      <elevation_m>176</elevation_m>
      <site>N Lake Michigan</site>
      <state>--</state>
      <country>US</country>
    </Station>
    <Station>
      <station_id>45003</station_id>
      <latitude>45.351</latitude>
      <longitude>-82.84</longitude>
      <elevation_m>177</elevation_m>
      <site>N Huron</site>
      <state>--</state>
      <country>US</country>
    </Station>
    <Station>
      <station_id>45004</station_id>
      <latitude>47.584</latitude>
      <longitude>-86.587</longitude>
      <elevation_m>183</elevation_m>
      <site>Marquette 78NE</site>
      <state>--</state>
      <country>US</country>
    </Station>
    <Station>
      <station_id>45005</station_id>
      <latitude>41.677</latitude>
      <longitude>-82.398</longitude>
      <elevation_m>174</elevation_m>
      <site>Cleveland 28NW</site>
      <state>--</state>
      <country>US</country>
    </Station>
    <Station>
      <station_id>45006</station_id>
      <latitude>47.335</latitude>
      <longitude>-89.793</longitude>
      <elevation_m>183</elevation_m>
      <site>Ironwood 48N</site>
      <state>--</state>
      <country>US</country>
    </Station>
    <Station>
      <station_id>45007</station_id>
      <latitude>42.674</latitude>
      <longitude>-87.026</longitude>
      <elevation_m>176</elevation_m>
      <site>South Lake Michigan</site>
      <state>--</state>
      <country>US</country>
    </Station>
    <Station>
      <station_id>45008</station_id>
      <latitude>44.283</latitude>
      <longitude>-82.416</longitude>
      <elevation_m>177</elevation_m>
      <site>South Lake Huron</site>
      <state>--</state>
      <country>US</country>
    </Station>
    <Station>
      <station_id>45012</station_id>
      <latitude>43.619</latitude>
      <longitude>-77.405</longitude>
      <elevation_m>75</elevation_m>
      <site>Lake Ontario</site>
      <state>--</state>
      <country>US</country>
    </Station>
    <Station>
      <station_id>45013</station_id>
      <latitude>43.098</latitude>
      <longitude>-87.85</longitude>
      <elevation_m>176</elevation_m>
      <site>Atwater Park</site>
      <state>WI</state>
      <country>US</country>
    </Station>
    <Station>
      <station_id>45014</station_id>
      <latitude>44.795</latitude>
      <longitude>-87.759</longitude>
      <elevation_m>176</elevation_m>
      <site>Central Green Bay</site>
      <state>--</state>
      <country>US</country>
    </Station>
    <Station>
      <station_id>45022</station_id>
      <latitude>45.403</latitude>
      <longitude>-85.088</longitude>
      <elevation_m>176</elevation_m>
      <site>Little Traverse Bay</site>
      <state>--</state>
      <country>US</country>
    </Station>
    <Station>
      <station_id>45023</station_id>
      <latitude>47.279</latitude>
      <longitude>-88.611</longitude>
      <elevation_m>183</elevation_m>
      <site>Portage Canal</site>
      <state>--</state>
      <country>US</country>
    </Station>
    <Station>
      <station_id>45024</station_id>
      <latitude>43.977</latitude>
      <longitude>-86.56</longitude>
      <elevation_m>176</elevation_m>
      <site>Ludington</site>
      <state>--</state>
      <country>US</country>
    </Station>
    <Station>
      <station_id>45025</station_id>
      <latitude>46.95</latitude>
      <longitude>-88.409</longitude>
      <elevation_m>185</elevation_m>
      <site>Keweenaw Waterway Peninsula</site>
      <state>--</state>
      <country>US</country>
    </Station>
    <Station>
      <station_id>45026</station_id>
      <latitude>41.983</latitude>
      <longitude>-86.617</longitude>
      <elevation_m>176</elevation_m>
      <site>St Joseph</site>
      <state>--</state>
      <country>US</country>
    </Station>
    <Station>
      <station_id>45027</station_id>
      <latitude>46.864</latitude>
      <longitude>-91.929</longitude>
      <elevation_m>183</elevation_m>
      <site>North Duluth</site>
      <state>--</state>
      <country>US</country>
    </Station>
    <Station>
      <station_id>45028</station_id>
      <latitude>46.812</latitude>
      <longitude>-91.835</longitude>
      <elevation_m>185</elevation_m>
      <site>West Lake Superior</site>
      <state>--</state>
      <country>US</country>
    </Station>
    <Station>
      <station_id>45029</station_id>
      <latitude>42.801</latitude>
      <longitude>-86.264</longitude>
      <elevation_m>183</elevation_m>
      <site>Holland</site>
      <state>MI</state>
      <country>US</country>
    </Station>
    <Station>
      <station_id>45132</station_id>
      <latitude>42.47</latitude>
      <longitude>-81.22</longitude>
      <elevation_m>174</elevation_m>
      <site>Port Stanley</site>
      <state>--</state>
      <country>CA</country>
    </Station>
    <Station>
      <station_id>45135</station_id>
      <latitude>43.79</latitude>
      <longitude>-76.87</longitude>
      <elevation_m>0</elevation_m>
      <site>Prince Edward Point</site>
      <state>--</state>
      <country>CA</country>
    </Station>
    <Station>
      <station_id>45136</station_id>
      <latitude>48.53</latitude>
      <longitude>-86.95</longitude>
      <elevation_m>185</elevation_m>
      <site>State Island</site>
      <state>--</state>
      <country>CA</country>
    </Station>
    <Station>
      <station_id>45137</station_id>
      <latitude>45.54</latitude>
      <longitude>-81.01</longitude>
      <elevation_m>0</elevation_m>
      <site>Georgian Bay</site>
      <state>--</state>
      <country>CA</country>
    </Station>
    <Station>
      <station_id>45138</station_id>
      <latitude>49.54</latitude>
      <longitude>-65.76</longitude>
      <elevation_m>0</elevation_m>
      <site>Mount Louis</site>
      <state>--</state>
      <country>CA</country>
    </Station>
    <Station>
      <station_id>45139</station_id>
      <latitude>43.26</latitude>
      <longitude>-79.54</longitude>
      <elevation_m>75</elevation_m>
      <site>West Lake Ontario</site>
      <state>--</state>
      <country>CA</country>
    </Station>
    <Station>
      <station_id>45140</station_id>
      <latitude>50.79</latitude>
      <longitude>-96.73</longitude>
      <elevation_m>217</elevation_m>
      <site>Lake Winnepeg South</site>
      <state>--</state>
      <country>CA</country>
    </Station>
    <Station>
      <station_id>45141</station_id>
      <latitude>61.18</latitude>
      <longitude>-115.31</longitude>
      <elevation_m>156</elevation_m>
      <site>Great Slave Lake</site>
      <state>--</state>
      <country>CA</country>
    </Station>
    <Station>
      <station_id>45142</station_id>
      <latitude>42.74</latitude>
      <longitude>-79.29</longitude>
      <elevation_m>174</elevation_m>
      <site>Port Colborne</site>
      <state>--</state>
      <country>CA</country>
    </Station>
    <Station>
      <station_id>45143</station_id>
      <latitude>44.94</latitude>
      <longitude>-80.63</longitude>
      <elevation_m>0</elevation_m>
      <site>South Georgian Bay</site>
      <state>--</state>
      <country>CA</country>
    </Station>
    <Station>
      <station_id>45144</station_id>
      <latitude>53.23</latitude>
      <longitude>-98.29</longitude>
      <elevation_m>217</elevation_m>
      <site>Lake Winnepeg North</site>
      <state>--</state>
      <country>CA</country>
    </Station>
    <Station>
      <station_id>45145</station_id>
      <latitude>51.867</latitude>
      <longitude>-96.97</longitude>
      <elevation_m>217</elevation_m>
      <site>Lake Winnepeg Narrow</site>
      <state>--</state>
      <country>CA</country>
    </Station>
    <Station>
      <station_id>45147</station_id>
      <latitude>42.43</latitude>
      <longitude>-82.68</longitude>
      <elevation_m>175</elevation_m>
      <site>Lake St Clair</site>
      <state>--</state>
      <country>CA</country>
    </Station>
    <Station>
      <station_id>45148</station_id>
      <latitude>49.66</latitude>
      <longitude>-94.52</longitude>
      <elevation_m>322</elevation_m>
      <site>Lake of the Woods</site>
      <state>--</state>
      <country>CA</country>
    </Station>
    <Station>
      <station_id>45149</station_id>
      <latitude>43.54</latitude>
      <longitude>-82.07</longitude>
      <elevation_m>175</elevation_m>
      <site>Southern Lake Huron</site>
      <state>--</state>
      <country>CA</country>
    </Station>
    <Station>
      <station_id>45150</station_id>
      <latitude>61.98</latitude>
      <longitude>-114.13</longitude>
      <elevation_m>156</elevation_m>
      <site>Great Slave Lake N</site>
      <state>--</state>
      <country>CA</country>
    </Station>
    <Station>
      <station_id>45151</station_id>
      <latitude>44.5</latitude>
      <longitude>-79.37</longitude>
      <elevation_m>219</elevation_m>
      <site>Lake Simcoe</site>
      <state>--</state>
      <country>CA</country>
    </Station>
    <Station>
      <station_id>45152</station_id>
      <latitude>46.23</latitude>
      <longitude>-79.72</longitude>
      <elevation_m>196</elevation_m>
      <site>Lake Nipissing</site>
      <state>--</state>
      <country>CA</country>
    </Station>
    <Station>
      <station_id>45154</station_id>
      <latitude>46.05</latitude>
      <longitude>-82.64</longitude>
      <elevation_m>175</elevation_m>
      <site>North Channel East</site>
      <state>--</state>
      <country>CA</country>
    </Station>
    <Station>
      <station_id>45159</station_id>
      <latitude>43.77</latitude>
      <longitude>-78.98</longitude>
      <elevation_m>75</elevation_m>
      <site>NW Lake Ontario</site>
      <state>--</state>
      <country>CA</country>
    </Station>
    <Station>
      <station_id>45161</station_id>
      <latitude>43.178</latitude>
      <longitude>-86.361</longitude>
      <elevation_m>176</elevation_m>
      <site>Muskegon</site>
      <state>MI</state>
      <country>US</country>
    </Station>
    <Station>
      <station_id>45162</station_id>
      <latitude>44.984</latitude>
      <longitude>-83.269</longitude>
      <elevation_m>176</elevation_m>
      <site>Alpena</site>
      <state>MI</state>
      <country>US</country>
    </Station>
    <Station>
      <station_id>45163</station_id>
      <latitude>43.988</latitude>
      <longitude>-83.599</longitude>
      <elevation_m>176</elevation_m>
      <site>Saginaw Bay</site>
      <state>--</state>
      <country>US</country>
    </Station>
    <Station>
      <station_id>45166</station_id>
      <latitude>44.992</latitude>
      <longitude>-73.115</longitude>
      <elevation_m>33</elevation_m>
      <site>Lake Champlain</site>
      <state>NY</state>
      <country>US</country>
    </Station>
    <Station>
      <station_id>45170</station_id>
      <latitude>41.755</latitude>
      <longitude>-86.968</longitude>
      <elevation_m>183</elevation_m>
      <site>Michigan City</site>
      <state>IN</state>
      <country>US</country>
    </Station>
    <Station>
      <station_id>46001</station_id>
      <latitude>56.304</latitude>
      <longitude>-147.92</longitude>
      <elevation_m>0</elevation_m>
      <site>Kodiak 175SE</site>
      <state>--</state>
      <country>US</country>
    </Station>
    <Station>
      <station_id>46002</station_id>
      <latitude>42.589</latitude>
      <longitude>-130.474</longitude>
      <elevation_m>0</elevation_m>
      <site>Coos Bay 275W</site>
      <state>--</state>
      <country>US</country>
    </Station>
    <Station>
      <station_id>46003</station_id>
      <latitude>51.831</latitude>
      <longitude>-155.85</longitude>
      <elevation_m>0</elevation_m>
      <site>S Aleutians</site>
      <state>--</state>
      <country>US</country>
    </Station>
    <Station>
      <station_id>46004</station_id>
      <latitude>50.93</latitude>
      <longitude>-136.1</longitude>
      <elevation_m>0</elevation_m>
      <site>Middle Nomad</site>
      <state>--</state>
      <country>CA</country>
    </Station>
    <Station>
      <station_id>46005</station_id>
      <latitude>46.1</latitude>
      <longitude>-131.001</longitude>
      <elevation_m>0</elevation_m>
      <site>Aberdeen 215W</site>
      <state>--</state>
      <country>US</country>
    </Station>
    <Station>
      <station_id>46006</station_id>
      <latitude>40.754</latitude>
      <longitude>-137.464</longitude>
      <elevation_m>0</elevation_m>
      <site>Eureka 600W</site>
      <state>--</state>
      <country>US</country>
    </Station>
    <Station>
      <station_id>46011</station_id>
      <latitude>35</latitude>
      <longitude>-120.992</longitude>
      <elevation_m>0</elevation_m>
      <site>Santa Maria</site>
      <state>--</state>
      <country>US</country>
    </Station>
    <Station>
      <station_id>46012</station_id>
      <latitude>37.363</latitude>
      <longitude>-122.881</longitude>
      <elevation_m>0</elevation_m>
      <site>San Francisco 24SSW</site>
      <state>--</state>
      <country>US</country>
    </Station>
    <Station>
      <station_id>46013</station_id>
      <latitude>38.242</latitude>
      <longitude>-123.301</longitude>
      <elevation_m>0</elevation_m>
      <site>Bodega Bay</site>
      <state>--</state>
      <country>--</country>
    </Station>
    <Station>
      <station_id>46014</station_id>
      <latitude>39.235</latitude>
      <longitude>-123.974</longitude>
      <elevation_m>0</elevation_m>
      <site>Point Arenas 19N</site>
      <state>--</state>
      <country>--</country>
    </Station>
    <Station>
      <station_id>46015</station_id>
      <latitude>42.764</latitude>
      <longitude>-124.832</longitude>
      <elevation_m>0</elevation_m>
      <site>Port Oxford 16W</site>
      <state>--</state>
      <country>US</country>
    </Station>
    <Station>
      <station_id>46022</station_id>
      <latitude>40.724</latitude>
      <longitude>-124.578</longitude>
      <elevation_m>0</elevation_m>
      <site>Eel River</site>
      <state>--</state>
      <country>US</country>
    </Station>
    <Station>
      <station_id>46025</station_id>
      <latitude>33.749</latitude>
      <longitude>-119.053</longitude>
      <elevation_m>0</elevation_m>
      <site>Santa Monica 33WSW</site>
      <state>--</state>
      <country>US</country>
    </Station>
    <Station>
      <station_id>46026</station_id>
      <latitude>37.759</latitude>
      <longitude>-122.833</longitude>
      <elevation_m>0</elevation_m>
      <site>San Francisco 18W</site>
      <state>--</state>
      <country>US</country>
    </Station>
    <Station>
      <station_id>46027</station_id>
      <latitude>41.85</latitude>
      <longitude>-124.381</longitude>
      <elevation_m>0</elevation_m>
      <site>Crescent City 8NW</site>
      <state>--</state>
      <country>US</country>
    </Station>
    <Station>
      <station_id>46028</station_id>
      <latitude>35.741</latitude>
      <longitude>-121.884</longitude>
      <elevation_m>0</elevation_m>
      <site>Morro Bay 55WNW</site>
      <state>--</state>
      <country>--</country>
    </Station>
    <Station>
      <station_id>46029</station_id>
      <latitude>46.144</latitude>
      <longitude>-124.51</longitude>
      <elevation_m>0</elevation_m>
      <site>Columbia River 20W</site>
      <state>--</state>
      <country>US</country>
    </Station>
    <Station>
      <station_id>46035</station_id>
      <latitude>57.067</latitude>
      <longitude>-177.75</longitude>
      <elevation_m>0</elevation_m>
      <site>Bering Sea 310N Adak</site>
      <state>--</state>
      <country>--</country>
    </Station>
    <Station>
      <station_id>46036</station_id>
      <latitude>48.351</latitude>
      <longitude>-133.94</longitude>
      <elevation_m>0</elevation_m>
      <site>South Nomad</site>
      <state>--</state>
      <country>CA</country>
    </Station>
    <Station>
      <station_id>46041</station_id>
      <latitude>47.353</latitude>
      <longitude>-124.731</longitude>
      <elevation_m>0</elevation_m>
      <site>Cape Elizabeth</site>
      <state>--</state>
      <country>US</country>
    </Station>
    <Station>
      <station_id>46042</station_id>
      <latitude>36.785</latitude>
      <longitude>-122.469</longitude>
      <elevation_m>0</elevation_m>
      <site>Monterey Bay 27W</site>
      <state>--</state>
      <country>--</country>
    </Station>
    <Station>
      <station_id>46047</station_id>
      <latitude>32.403</latitude>
      <longitude>-119.536</longitude>
      <elevation_m>0</elevation_m>
      <site>Tanner Bank</site>
      <state>--</state>
      <country>--</country>
    </Station>
    <Station>
      <station_id>46050</station_id>
      <latitude>44.639</latitude>
      <longitude>-124.534</longitude>
      <elevation_m>0</elevation_m>
      <site>Stonewall Bank</site>
      <state>--</state>
      <country>US</country>
    </Station>
    <Station>
      <station_id>46053</station_id>
      <latitude>34.248</latitude>
      <longitude>-119.841</longitude>
      <elevation_m>0</elevation_m>
      <site>E Santa Barbara</site>
      <state>--</state>
      <country>US</country>
    </Station>
    <Station>
      <station_id>46054</station_id>
      <latitude>34.274</latitude>
      <longitude>-120.459</longitude>
      <elevation_m>0</elevation_m>
      <site>Santa Barbara 38W</site>
      <state>--</state>
      <country>US</country>
    </Station>
    <Station>
      <station_id>46059</station_id>
      <latitude>38.047</latitude>
      <longitude>-129.969</longitude>
      <elevation_m>0</elevation_m>
      <site>San Francisco 357W</site>
      <state>--</state>
      <country>US</country>
    </Station>
    <Station>
      <station_id>46060</station_id>
      <latitude>60.593</latitude>
      <longitude>-146.818</longitude>
      <elevation_m>0</elevation_m>
      <site>W Orca Bay</site>
      <state>AK</state>
      <country>US</country>
    </Station>
    <Station>
      <station_id>46061</station_id>
      <latitude>60.233</latitude>
      <longitude>-146.834</longitude>
      <elevation_m>0</elevation_m>
      <site>Seal Rocks</site>
      <state>--</state>
      <country>US</country>
    </Station>
    <Station>
      <station_id>46069</station_id>
      <latitude>33.67</latitude>
      <longitude>-120.2</longitude>
      <elevation_m>0</elevation_m>
      <site>S Santa Rosa Island</site>
      <state>--</state>
      <country>US</country>
    </Station>
    <Station>
      <station_id>46070</station_id>
      <latitude>55.083</latitude>
      <longitude>175.27</longitude>
      <elevation_m>0</elevation_m>
      <site>SW Bering Sea</site>
      <state>--</state>
      <country>--</country>
    </Station>
    <Station>
      <station_id>46071</station_id>
      <latitude>51.141</latitude>
      <longitude>179.119</longitude>
      <elevation_m>0</elevation_m>
      <site>West Aleutians</site>
      <state>--</state>
      <country>US</country>
    </Station>
    <Station>
      <station_id>46072</station_id>
      <latitude>51.663</latitude>
      <longitude>-172.162</longitude>
      <elevation_m>0</elevation_m>
      <site>Central Aleutians 23</site>
      <state>AK</state>
      <country>US</country>
    </Station>
    <Station>
      <station_id>46075</station_id>
      <latitude>53.911</latitude>
      <longitude>-160.806</longitude>
      <elevation_m>0</elevation_m>
      <site>Shumagin Islands</site>
      <state>AK</state>
      <country>US</country>
    </Station>
    <Station>
      <station_id>46076</station_id>
      <latitude>59.498</latitude>
      <longitude>-147.983</longitude>
      <elevation_m>4</elevation_m>
      <site>Cape Cleare</site>
      <state>AK</state>
      <country>US</country>
    </Station>
    <Station>
      <station_id>46077</station_id>
      <latitude>57.892</latitude>
      <longitude>-154.291</longitude>
      <elevation_m>0</elevation_m>
      <site>Shelikof Strait</site>
      <state>--</state>
      <country>US</country>
    </Station>
    <Station>
      <station_id>46078</station_id>
      <latitude>55.99</latitude>
      <longitude>-152.64</longitude>
      <elevation_m>0</elevation_m>
      <site>Albatross Bank</site>
      <state>AK</state>
      <country>US</country>
    </Station>
    <Station>
      <station_id>46080</station_id>
      <latitude>58.036</latitude>
      <longitude>-149.985</longitude>
      <elevation_m>0</elevation_m>
      <site>Northwest Gulf 57</site>
      <state>AK</state>
      <country>US</country>
    </Station>
    <Station>
      <station_id>46081</station_id>
      <latitude>60.803</latitude>
      <longitude>-148.263</longitude>
      <elevation_m>4</elevation_m>
      <site>West Prince Williams</site>
      <state>AK</state>
      <country>US</country>
    </Station>
    <Station>
      <station_id>46082</station_id>
      <latitude>59.688</latitude>
      <longitude>-143.399</longitude>
      <elevation_m>0</elevation_m>
      <site>Cape Suckling</site>
      <state>--</state>
      <country>US</country>
    </Station>
    <Station>
      <station_id>46083</station_id>
      <latitude>58.237</latitude>
      <longitude>-137.986</longitude>
      <elevation_m>0</elevation_m>
      <site>Fairweather Grounds</site>
      <state>--</state>
      <country>US</country>
    </Station>
    <Station>
      <station_id>46084</station_id>
      <latitude>56.612</latitude>
      <longitude>-136.065</longitude>
      <elevation_m>0</elevation_m>
      <site>Cape Edgecumbe Bouy</site>
      <state>--</state>
      <country>US</country>
    </Station>
    <Station>
      <station_id>46085</station_id>
      <latitude>55.868</latitude>
      <longitude>-142.492</longitude>
      <elevation_m>0</elevation_m>
      <site>Central Gulf of Alaska</site>
      <state>--</state>
      <country>US</country>
    </Station>
    <Station>
      <station_id>46086</station_id>
      <latitude>32.491</latitude>
      <longitude>-118.034</longitude>
      <elevation_m>0</elevation_m>
      <site>San Clemente Basin</site>
      <state>--</state>
      <country>--</country>
    </Station>
    <Station>
      <station_id>46087</station_id>
      <latitude>48.494</latitude>
      <longitude>-124.728</longitude>
      <elevation_m>0</elevation_m>
      <site>Neah Bay</site>
      <state>--</state>
      <country>US</country>
    </Station>
    <Station>
      <station_id>46088</station_id>
      <latitude>48.333</latitude>
      <longitude>-123.167</longitude>
      <elevation_m>4</elevation_m>
      <site>New Dungeness</site>
      <state>WA</state>
      <country>US</country>
    </Station>
    <Station>
      <station_id>46089</station_id>
      <latitude>45.889</latitude>
      <longitude>-125.83</longitude>
      <elevation_m>0</elevation_m>
      <site>Tillamook 85WNW</site>
      <state>--</state>
      <country>US</country>
    </Station>
    <Station>
      <station_id>46092</station_id>
      <latitude>36.75</latitude>
      <longitude>-122.02</longitude>
      <elevation_m>0</elevation_m>
      <site>Monterey Bay(MBARI)</site>
      <state>--</state>
      <country>--</country>
    </Station>
    <Station>
      <station_id>46094</station_id>
      <latitude>44.633</latitude>
      <longitude>-124.304</longitude>
      <elevation_m>0</elevation_m>
      <site>Newport West</site>
      <state>--</state>
      <country>US</country>
    </Station>
    <Station>
      <station_id>46096</station_id>
      <latitude>46.173</latitude>
      <longitude>-124.127</longitude>
      <elevation_m>0</elevation_m>
      <site>Columbia River Entrance</site>
      <state>--</state>
      <country>US</country>
    </Station>
    <Station>
      <station_id>46108</station_id>
      <latitude>59.76</latitude>
      <longitude>-152.09</longitude>
      <elevation_m>0</elevation_m>
      <site>Central Cook Inlet</site>
      <state>--</state>
      <country>US</country>
    </Station>
    <Station>
      <station_id>46109</station_id>
      <latitude>48.123</latitude>
      <longitude>-123.395</longitude>
      <elevation_m>0</elevation_m>
      <site>Port Angeles Bouy</site>
      <state>--</state>
      <country>US</country>
    </Station>
    <Station>
      <station_id>46110</station_id>
      <latitude>48.115</latitude>
      <longitude>-123.032</longitude>
      <elevation_m>0</elevation_m>
      <site>Sequim Bouy</site>
      <state>--</state>
      <country>US</country>
    </Station>
    <Station>
      <station_id>46111</station_id>
      <latitude>48.131</latitude>
      <longitude>-122.748</longitude>
      <elevation_m>0</elevation_m>
      <site>Fort Worden Bouy</site>
      <state>--</state>
      <country>US</country>
    </Station>
    <Station>
      <station_id>46112</station_id>
      <latitude>48.1</latitude>
      <longitude>-122.73</longitude>
      <elevation_m>2</elevation_m>
      <site>Marrowstone Bouy</site>
      <state>--</state>
      <country>US</country>
    </Station>
    <Station>
      <station_id>46113</station_id>
      <latitude>47.73</latitude>
      <longitude>-122.646</longitude>
      <elevation_m>0</elevation_m>
      <site>Poulsbo Bouy</site>
      <state>--</state>
      <country>US</country>
    </Station>
    <Station>
      <station_id>46114</station_id>
      <latitude>36.71</latitude>
      <longitude>-122.342</longitude>
      <elevation_m>0</elevation_m>
      <site>W Monterey Bay</site>
      <state>CA</state>
      <country>US</country>
    </Station>
    <Station>
      <station_id>46121</station_id>
      <latitude>47.28</latitude>
      <longitude>-122.73</longitude>
      <elevation_m>0</elevation_m>
      <site>Carr Inlet</site>
      <state>--</state>
      <country>US</country>
    </Station>
    <Station>
      <station_id>46122</station_id>
      <latitude>47.803</latitude>
      <longitude>-122.803</longitude>
      <elevation_m>0</elevation_m>
      <site>Dabob Bay</site>
      <state>--</state>
      <country>US</country>
    </Station>
    <Station>
      <station_id>46131</station_id>
      <latitude>49.91</latitude>
      <longitude>-124.99</longitude>
      <elevation_m>0</elevation_m>
      <site>Sentry Shoal</site>
      <state>--</state>
      <country>CA</country>
    </Station>
    <Station>
      <station_id>46132</station_id>
      <latitude>49.74</latitude>
      <longitude>-127.93</longitude>
      <elevation_m>0</elevation_m>
      <site>South Brooks</site>
      <state>--</state>
      <country>CA</country>
    </Station>
    <Station>
      <station_id>46145</station_id>
      <latitude>54.37</latitude>
      <longitude>-132.42</longitude>
      <elevation_m>0</elevation_m>
      <site>Central Dixon Entrance</site>
      <state>--</state>
      <country>CA</country>
    </Station>
    <Station>
      <station_id>46146</station_id>
      <latitude>49.34</latitude>
      <longitude>-123.73</longitude>
      <elevation_m>0</elevation_m>
      <site>Halibut Bank</site>
      <state>--</state>
      <country>CA</country>
    </Station>
    <Station>
      <station_id>46147</station_id>
      <latitude>51.83</latitude>
      <longitude>-131.22</longitude>
      <elevation_m>0</elevation_m>
      <site>South Moresby</site>
      <state>--</state>
      <country>CA</country>
    </Station>
    <Station>
      <station_id>46181</station_id>
      <latitude>53.83</latitude>
      <longitude>-128.83</longitude>
      <elevation_m>0</elevation_m>
      <site>Nanakwa Shoal</site>
      <state>--</state>
      <country>CA</country>
    </Station>
    <Station>
      <station_id>46183</station_id>
      <latitude>53.62</latitude>
      <longitude>-131.1</longitude>
      <elevation_m>0</elevation_m>
      <site>North Hecate Strait</site>
      <state>--</state>
      <country>CA</country>
    </Station>
    <Station>
      <station_id>46184</station_id>
      <latitude>53.91</latitude>
      <longitude>-138.85</longitude>
      <elevation_m>0</elevation_m>
      <site>North Nomad</site>
      <state>--</state>
      <country>CA</country>
    </Station>
    <Station>
      <station_id>46185</station_id>
      <latitude>52.42</latitude>
      <longitude>-129.79</longitude>
      <elevation_m>0</elevation_m>
      <site>South Hecate Strait</site>
      <state>--</state>
      <country>CA</country>
    </Station>
    <Station>
      <station_id>46204</station_id>
      <latitude>51.37</latitude>
      <longitude>-128.75</longitude>
      <elevation_m>0</elevation_m>
      <site>West Sea Otter</site>
      <state>--</state>
      <country>CA</country>
    </Station>
    <Station>
      <station_id>46205</station_id>
      <latitude>54.16</latitude>
      <longitude>-134.28</longitude>
      <elevation_m>0</elevation_m>
      <site>West Dixon</site>
      <state>--</state>
      <country>CA</country>
    </Station>
    <Station>
      <station_id>46206</station_id>
      <latitude>48.84</latitude>
      <longitude>-126</longitude>
      <elevation_m>0</elevation_m>
      <site>La Perouse Bank</site>
      <state>--</state>
      <country>CA</country>
    </Station>
    <Station>
      <station_id>46207</station_id>
      <latitude>50.87</latitude>
      <longitude>-129.92</longitude>
      <elevation_m>0</elevation_m>
      <site>East Dellwood</site>
      <state>--</state>
      <country>CA</country>
    </Station>
    <Station>
      <station_id>46208</station_id>
      <latitude>52.52</latitude>
      <longitude>-132.69</longitude>
      <elevation_m>0</elevation_m>
      <site>West Moresby</site>
      <state>--</state>
      <country>CA</country>
    </Station>
    <Station>
      <station_id>46211</station_id>
      <latitude>46.857</latitude>
      <longitude>-124.244</longitude>
      <elevation_m>0</elevation_m>
      <site>Grays Harbor</site>
      <state>--</state>
      <country>US</country>
    </Station>
    <Station>
      <station_id>46213</station_id>
      <latitude>40.294</latitude>
      <longitude>-124.74</longitude>
      <elevation_m>0</elevation_m>
      <site>Cape Mendocino</site>
      <state>CA</state>
      <country>US</country>
    </Station>
    <Station>
      <station_id>46214</station_id>
      <latitude>37.945</latitude>
      <longitude>-123.47</longitude>
      <elevation_m>0</elevation_m>
      <site>Point Reyes</site>
      <state>CA</state>
      <country>US</country>
    </Station>
    <Station>
      <station_id>46215</station_id>
      <latitude>35.204</latitude>
      <longitude>-120.86</longitude>
      <elevation_m>4</elevation_m>
      <site>Diablo Canyon</site>
      <state>CA</state>
      <country>US</country>
    </Station>
    <Station>
      <station_id>46216</station_id>
      <latitude>34.334</latitude>
      <longitude>-119.804</longitude>
      <elevation_m>0</elevation_m>
      <site>Goleta Point</site>
      <state>--</state>
      <country>US</country>
    </Station>
    <Station>
      <station_id>46218</station_id>
      <latitude>34.451</latitude>
      <longitude>-120.769</longitude>
      <elevation_m>0</elevation_m>
      <site>Harvest</site>
      <state>CA</state>
      <country>US</country>
    </Station>
    <Station>
      <station_id>46219</station_id>
      <latitude>33.221</latitude>
      <longitude>-119.882</longitude>
      <elevation_m>0</elevation_m>
      <site>San Nicolas Island</site>
      <state>CA</state>
      <country>US</country>
    </Station>
    <Station>
      <station_id>46221</station_id>
      <latitude>33.854</latitude>
      <longitude>-118.633</longitude>
      <elevation_m>0</elevation_m>
      <site>Santa Monica Bay</site>
      <state>CA</state>
      <country>US</country>
    </Station>
    <Station>
      <station_id>46222</station_id>
      <latitude>33.618</latitude>
      <longitude>-118.317</longitude>
      <elevation_m>0</elevation_m>
      <site>San Pedro</site>
      <state>--</state>
      <country>US</country>
    </Station>
    <Station>
      <station_id>46223</station_id>
      <latitude>33.458</latitude>
      <longitude>-117.767</longitude>
      <elevation_m>0</elevation_m>
      <site>Dana Point</site>
      <state>--</state>
      <country>US</country>
    </Station>
    <Station>
      <station_id>46224</station_id>
      <latitude>33.179</latitude>
      <longitude>-117.471</longitude>
      <elevation_m>0</elevation_m>
      <site>Oceanside Offshore</site>
      <state>--</state>
      <country>US</country>
    </Station>
    <Station>
      <station_id>46225</station_id>
      <latitude>32.93</latitude>
      <longitude>-117.393</longitude>
      <elevation_m>0</elevation_m>
      <site>Torrey Pines Outer</site>
      <state>--</state>
      <country>US</country>
    </Station>
    <Station>
      <station_id>46229</station_id>
      <latitude>43.769</latitude>
      <longitude>-124.551</longitude>
      <elevation_m>0</elevation_m>
      <site>Umpqua Offshore</site>
      <state>OR</state>
      <country>US</country>
    </Station>
    <Station>
      <station_id>46231</station_id>
      <latitude>32.748</latitude>
      <longitude>-117.37</longitude>
      <elevation_m>0</elevation_m>
      <site>Mission Bay</site>
      <state>--</state>
      <country>US</country>
    </Station>
    <Station>
      <station_id>46232</station_id>
      <latitude>32.53</latitude>
      <longitude>-117.431</longitude>
      <elevation_m>0</elevation_m>
      <site>Point Loma South</site>
      <state>--</state>
      <country>US</country>
    </Station>
    <Station>
      <station_id>46236</station_id>
      <latitude>36.761</latitude>
      <longitude>-121.947</longitude>
      <elevation_m>0</elevation_m>
      <site>Monterey Canyon Outer</site>
      <state>CA</state>
      <country>US</country>
    </Station>
    <Station>
      <station_id>46237</station_id>
      <latitude>37.781</latitude>
      <longitude>-122.599</longitude>
      <elevation_m>0</elevation_m>
      <site>San Francisco Bar</site>
      <state>--</state>
      <country>US</country>
    </Station>
    <Station>
      <station_id>46238</station_id>
      <latitude>33.499</latitude>
      <longitude>-119.49</longitude>
      <elevation_m>0</elevation_m>
      <site>San Nicolas Isl North</site>
      <state>CA</state>
      <country>US</country>
    </Station>
    <Station>
      <station_id>46239</station_id>
      <latitude>36.338</latitude>
      <longitude>-122.101</longitude>
      <elevation_m>0</elevation_m>
      <site>Point Sur</site>
      <state>CA</state>
      <country>US</country>
    </Station>
    <Station>
      <station_id>46240</station_id>
      <latitude>36.626</latitude>
      <longitude>-121.907</longitude>
      <elevation_m>0</elevation_m>
      <site>Cabrillo Point</site>
      <state>--</state>
      <country>US</country>
    </Station>
    <Station>
      <station_id>46242</station_id>
      <latitude>33.22</latitude>
      <longitude>-117.44</longitude>
      <elevation_m>0</elevation_m>
      <site>Camp Pendleton Nearshore</site>
      <state>CA</state>
      <country>US</country>
    </Station>
    <Station>
      <station_id>46243</station_id>
      <latitude>46.216</latitude>
      <longitude>-124.128</longitude>
      <elevation_m>0</elevation_m>
      <site>Clatsop Spit</site>
      <state>OR</state>
      <country>US</country>
    </Station>
    <Station>
      <station_id>46244</station_id>
      <latitude>40.888</latitude>
      <longitude>-124.356</longitude>
      <elevation_m>0</elevation_m>
      <site>Humboldt Bay</site>
      <state>CA</state>
      <country>US</country>
    </Station>
    <Station>
      <station_id>46246</station_id>
      <latitude>49.985</latitude>
      <longitude>-145.089</longitude>
      <elevation_m>0</elevation_m>
      <site>Ocean Station</site>
      <state>--</state>
      <country>--</country>
    </Station>
    <Station>
      <station_id>46247</station_id>
      <latitude>37.753</latitude>
      <longitude>-122.833</longitude>
      <elevation_m>0</elevation_m>
      <site>San Francisco Offshore</site>
      <state>CA</state>
      <country>US</country>
    </Station>
    <Station>
      <station_id>46248</station_id>
      <latitude>46.133</latitude>
      <longitude>-124.667</longitude>
      <elevation_m>0</elevation_m>
      <site>Astoria Canyon</site>
      <state>--</state>
      <country>US</country>
    </Station>
    <Station>
      <station_id>46249</station_id>
      <latitude>33.821</latitude>
      <longitude>-119.708</longitude>
      <elevation_m>0</elevation_m>
      <site>Santa Cruz Island South</site>
      <state>--</state>
      <country>US</country>
    </Station>
    <Station>
      <station_id>48213</station_id>
      <latitude>71.758</latitude>
      <longitude>-167.95</longitude>
      <elevation_m>4</elevation_m>
      <site>Burger</site>
      <state>--</state>
      <country>--</country>
    </Station>
    <Station>
      <station_id>48214</station_id>
      <latitude>70.871</latitude>
      <longitude>-165.246</longitude>
      <elevation_m>4</elevation_m>
      <site>Klondike</site>
      <state>AK</state>
      <country>US</country>
    </Station>
    <Station>
      <station_id>51000</station_id>
      <latitude>23.546</latitude>
      <longitude>-154.056</longitude>
      <elevation_m>0</elevation_m>
      <site>N Hawaii</site>
      <state>--</state>
      <country>US</country>
    </Station>
    <Station>
      <station_id>51002</station_id>
      <latitude>17.094</latitude>
      <longitude>-157.808</longitude>
      <elevation_m>0</elevation_m>
      <site>SW Hawaii</site>
      <state>--</state>
      <country>US</country>
    </Station>
    <Station>
      <station_id>51003</station_id>
      <latitude>19.018</latitude>
      <longitude>-160.582</longitude>
      <elevation_m>0</elevation_m>
      <site>W Hawaii</site>
      <state>--</state>
      <country>US</country>
    </Station>
    <Station>
      <station_id>51004</station_id>
      <latitude>17.525</latitude>
      <longitude>-152.382</longitude>
      <elevation_m>0</elevation_m>
      <site>SE Hawaii</site>
      <state>--</state>
      <country>US</country>
    </Station>
    <Station>
      <station_id>51100</station_id>
      <latitude>23.558</latitude>
      <longitude>-153.9</longitude>
      <elevation_m>0</elevation_m>
      <site>Northern Hawaii</site>
      <state>--</state>
      <country>US</country>
    </Station>
    <Station>
      <station_id>51101</station_id>
      <latitude>24.321</latitude>
      <longitude>-162.058</longitude>
      <elevation_m>0</elevation_m>
      <site>NW Hawaii</site>
      <state>--</state>
      <country>US</country>
    </Station>
    <Station>
      <station_id>51169</station_id>
      <latitude>-0.379</latitude>
      <longitude>-159.978</longitude>
      <elevation_m>0</elevation_m>
      <site>Jarvis Island</site>
      <state>--</state>
      <country>--</country>
    </Station>
    <Station>
      <station_id>51181</station_id>
      <latitude>-14.363</latitude>
      <longitude>-170.764</longitude>
      <elevation_m>0</elevation_m>
      <site>American Somoa</site>
      <state>--</state>
      <country>--</country>
    </Station>
    <Station>
      <station_id>51201</station_id>
      <latitude>21.673</latitude>
      <longitude>-158.116</longitude>
      <elevation_m>0</elevation_m>
      <site>Waimea Bay</site>
      <state>--</state>
      <country>US</country>
    </Station>
    <Station>
      <station_id>51205</station_id>
      <latitude>21.019</latitude>
      <longitude>-156.427</longitude>
      <elevation_m>0</elevation_m>
      <site>Pauwela</site>
      <state>HI</state>
      <country>US</country>
    </Station>
    <Station>
      <station_id>51206</station_id>
      <latitude>19.78</latitude>
      <longitude>-154.97</longitude>
      <elevation_m>0</elevation_m>
      <site>Hilo</site>
      <state>--</state>
      <country>US</country>
    </Station>
    <Station>
      <station_id>52200</station_id>
      <latitude>13.354</latitude>
      <longitude>144.789</longitude>
      <elevation_m>0</elevation_m>
      <site>Guam/Ipan</site>
      <state>--</state>
      <country>--</country>
    </Station>
    <Station>
      <station_id>52202</station_id>
      <latitude>13.683</latitude>
      <longitude>144.812</longitude>
      <elevation_m>4</elevation_m>
      <site>Ritidian Point</site>
      <state>--</state>
      <country>GT</country>
    </Station>
    <Station>
      <station_id>52211</station_id>
      <latitude>15.267</latitude>
      <longitude>145.662</longitude>
      <elevation_m>4</elevation_m>
      <site>Tanapag,Saipan</site>
      <state>--</state>
      <country>US</country>
    </Station>
    <Station>
      <station_id>52243</station_id>
      <latitude>19.308</latitude>
      <longitude>166.622</longitude>
      <elevation_m>0</elevation_m>
      <site>Wake Island</site>
      <state>--</state>
      <country>--</country>
    </Station>
    <Station>
      <station_id>52245</station_id>
      <latitude>18.127</latitude>
      <longitude>145.757</longitude>
      <elevation_m>0</elevation_m>
      <site>Pagan Islana</site>
      <state>--</state>
      <country>--</country>
    </Station>
    <Station>
      <station_id>61001</station_id>
      <latitude>43.4</latitude>
      <longitude>7.8</longitude>
      <elevation_m>0</elevation_m>
      <site>Nice Bouy</site>
      <state>--</state>
      <country>FR</country>
    </Station>
    <Station>
      <station_id>61002</station_id>
      <latitude>42.1</latitude>
      <longitude>4.7</longitude>
      <elevation_m>4</elevation_m>
      <site>Lion Buoy</site>
      <state>--</state>
      <country>--</country>
    </Station>
    <Station>
      <station_id>62001</station_id>
      <latitude>45.2</latitude>
      <longitude>-5.5</longitude>
      <elevation_m>0</elevation_m>
      <site>Gascogne Bouy</site>
      <state>--</state>
      <country>GB</country>
    </Station>
    <Station>
      <station_id>62023</station_id>
      <latitude>51.37</latitude>
      <longitude>-7.95</longitude>
      <elevation_m>0</elevation_m>
      <site>Bouy</site>
      <state>--</state>
      <country>--</country>
    </Station>
    <Station>
      <station_id>62027</station_id>
      <latitude>49.082</latitude>
      <longitude>-2.218</longitude>
      <elevation_m>0</elevation_m>
      <site>Jersey 5S</site>
      <state>--</state>
      <country>GB</country>
    </Station>
    <Station>
      <station_id>62028</station_id>
      <latitude>50.59</latitude>
      <longitude>-2.3</longitude>
      <elevation_m>0</elevation_m>
      <site>Weymouth Bay</site>
      <state>--</state>
      <country>GB</country>
    </Station>
    <Station>
      <station_id>62029</station_id>
      <latitude>48.7</latitude>
      <longitude>-12.4</longitude>
      <elevation_m>0</elevation_m>
      <site>K1 Bouy</site>
      <state>--</state>
      <country>GB</country>
    </Station>
    <Station>
      <station_id>62050</station_id>
      <latitude>50</latitude>
      <longitude>4.4</longitude>
      <elevation_m>0</elevation_m>
      <site>BUOY</site>
      <state>--</state>
      <country>--</country>
    </Station>
    <Station>
      <station_id>62081</station_id>
      <latitude>51</latitude>
      <longitude>-13.3</longitude>
      <elevation_m>0</elevation_m>
      <site>K2 Bouy</site>
      <state>--</state>
      <country>GB</country>
    </Station>
    <Station>
      <station_id>62086</station_id>
      <latitude>-99.99</latitude>
      <longitude>-99.99</longitude>
      <elevation_m>9999</elevation_m>
      <site>UNK</site>
      <state>--</state>
      <country>--</country>
    </Station>
    <Station>
      <station_id>62095</station_id>
      <latitude>53.056</latitude>
      <longitude>-15.924</longitude>
      <elevation_m>0</elevation_m>
      <site>M6 West Coast</site>
      <state>--</state>
      <country>GB</country>
    </Station>
    <Station>
      <station_id>62102</station_id>
      <latitude>52.7</latitude>
      <longitude>2.3</longitude>
      <elevation_m>0</elevation_m>
      <site>Bouy</site>
      <state>--</state>
      <country>--</country>
    </Station>
    <Station>
      <station_id>62103</station_id>
      <latitude>49.9</latitude>
      <longitude>-2.9</longitude>
      <elevation_m>0</elevation_m>
      <site>Channel Lightship</site>
      <state>--</state>
      <country>GB</country>
    </Station>
    <Station>
      <station_id>62104</station_id>
      <latitude>50.7</latitude>
      <longitude>0.4</longitude>
      <elevation_m>0</elevation_m>
      <site>Bouy</site>
      <state>--</state>
      <country>--</country>
    </Station>
    <Station>
      <station_id>62105</station_id>
      <latitude>55.4</latitude>
      <longitude>-12.2</longitude>
      <elevation_m>0</elevation_m>
      <site>K4 Bouy</site>
      <state>--</state>
      <country>GB</country>
    </Station>
    <Station>
      <station_id>62107</station_id>
      <latitude>50.103</latitude>
      <longitude>-6.1</longitude>
      <elevation_m>0</elevation_m>
      <site>Sevenstones Lightship</site>
      <state>--</state>
      <country>GB</country>
    </Station>
    <Station>
      <station_id>62111</station_id>
      <latitude>58.9</latitude>
      <longitude>-0.2</longitude>
      <elevation_m>0</elevation_m>
      <site>Bouy</site>
      <state>--</state>
      <country>--</country>
    </Station>
    <Station>
      <station_id>62112</station_id>
      <latitude>58.7</latitude>
      <longitude>1.3</longitude>
      <elevation_m>0</elevation_m>
      <site>Bouy</site>
      <state>--</state>
      <country>--</country>
    </Station>
    <Station>
      <station_id>62113</station_id>
      <latitude>58.4</latitude>
      <longitude>0.3</longitude>
      <elevation_m>0</elevation_m>
      <site>Bouy</site>
      <state>--</state>
      <country>--</country>
    </Station>
    <Station>
      <station_id>62114</station_id>
      <latitude>58.7</latitude>
      <longitude>1.1</longitude>
      <elevation_m>0</elevation_m>
      <site>Bouy</site>
      <state>--</state>
      <country>--</country>
    </Station>
    <Station>
      <station_id>62116</station_id>
      <latitude>58.1</latitude>
      <longitude>1.8</longitude>
      <elevation_m>0</elevation_m>
      <site>Bouy</site>
      <state>--</state>
      <country>--</country>
    </Station>
    <Station>
      <station_id>62117</station_id>
      <latitude>57.9</latitude>
      <longitude>0.1</longitude>
      <elevation_m>0</elevation_m>
      <site>Bouy</site>
      <state>--</state>
      <country>--</country>
    </Station>
    <Station>
      <station_id>62118</station_id>
      <latitude>57.7</latitude>
      <longitude>0.9</longitude>
      <elevation_m>0</elevation_m>
      <site>Bouy</site>
      <state>--</state>
      <country>--</country>
    </Station>
    <Station>
      <station_id>62119</station_id>
      <latitude>57.4</latitude>
      <longitude>1.3</longitude>
      <elevation_m>0</elevation_m>
      <site>Bouy</site>
      <state>--</state>
      <country>--</country>
    </Station>
    <Station>
      <station_id>62120</station_id>
      <latitude>60.9</latitude>
      <longitude>0.9</longitude>
      <elevation_m>0</elevation_m>
      <site>Bouy</site>
      <state>--</state>
      <country>--</country>
    </Station>
    <Station>
      <station_id>62121</station_id>
      <latitude>53.5</latitude>
      <longitude>2.7</longitude>
      <elevation_m>0</elevation_m>
      <site>Bouy</site>
      <state>--</state>
      <country>--</country>
    </Station>
    <Station>
      <station_id>62122</station_id>
      <latitude>56.5</latitude>
      <longitude>2.02</longitude>
      <elevation_m>0</elevation_m>
      <site>Bouy</site>
      <state>--</state>
      <country>--</country>
    </Station>
    <Station>
      <station_id>62123</station_id>
      <latitude>56.1</latitude>
      <longitude>2.7</longitude>
      <elevation_m>0</elevation_m>
      <site>Bouy</site>
      <state>--</state>
      <country>--</country>
    </Station>
    <Station>
      <station_id>62125</station_id>
      <latitude>53.8</latitude>
      <longitude>-3.5</longitude>
      <elevation_m>0</elevation_m>
      <site>OIL</site>
      <state>--</state>
      <country>--</country>
    </Station>
    <Station>
      <station_id>62126</station_id>
      <latitude>53.9</latitude>
      <longitude>-3.6</longitude>
      <elevation_m>0</elevation_m>
      <site>OIL</site>
      <state>--</state>
      <country>--</country>
    </Station>
    <Station>
      <station_id>62127</station_id>
      <latitude>53.5</latitude>
      <longitude>2.2</longitude>
      <elevation_m>0</elevation_m>
      <site>Bouy</site>
      <state>--</state>
      <country>--</country>
    </Station>
    <Station>
      <station_id>62128</station_id>
      <latitude>53.4</latitude>
      <longitude>2.3</longitude>
      <elevation_m>0</elevation_m>
      <site>Bouy</site>
      <state>--</state>
      <country>--</country>
    </Station>
    <Station>
      <station_id>62129</station_id>
      <latitude>53.1</latitude>
      <longitude>2.2</longitude>
      <elevation_m>0</elevation_m>
      <site>Bouy</site>
      <state>--</state>
      <country>--</country>
    </Station>
    <Station>
      <station_id>62130</station_id>
      <latitude>53</latitude>
      <longitude>1.7</longitude>
      <elevation_m>0</elevation_m>
      <site>OIL</site>
      <state>--</state>
      <country>--</country>
    </Station>
    <Station>
      <station_id>62131</station_id>
      <latitude>58.1</latitude>
      <longitude>0.1</longitude>
      <elevation_m>0</elevation_m>
      <site>Bouy</site>
      <state>--</state>
      <country>--</country>
    </Station>
    <Station>
      <station_id>62132</station_id>
      <latitude>56.5</latitude>
      <longitude>2.1</longitude>
      <elevation_m>0</elevation_m>
      <site>Bouy</site>
      <state>--</state>
      <country>--</country>
    </Station>
    <Station>
      <station_id>62133</station_id>
      <latitude>-99.99</latitude>
      <longitude>-99.99</longitude>
      <elevation_m>9999</elevation_m>
      <site>Buoy</site>
      <state>--</state>
      <country>--</country>
    </Station>
    <Station>
      <station_id>62134</station_id>
      <latitude>57.2</latitude>
      <longitude>1.2</longitude>
      <elevation_m>0</elevation_m>
      <site>Bouy</site>
      <state>--</state>
      <country>--</country>
    </Station>
    <Station>
      <station_id>62135</station_id>
      <latitude>54</latitude>
      <longitude>3.8</longitude>
      <elevation_m>0</elevation_m>
      <site>OIL</site>
      <state>--</state>
      <country>--</country>
    </Station>
    <Station>
      <station_id>62140</station_id>
      <latitude>57</latitude>
      <longitude>2.1</longitude>
      <elevation_m>0</elevation_m>
      <site>Bouy</site>
      <state>--</state>
      <country>--</country>
    </Station>
    <Station>
      <station_id>62141</station_id>
      <latitude>-99.99</latitude>
      <longitude>-99.99</longitude>
      <elevation_m>9999</elevation_m>
      <site>Buoy</site>
      <state>--</state>
      <country>--</country>
    </Station>
    <Station>
      <station_id>62142</station_id>
      <latitude>56.8</latitude>
      <longitude>1.7</longitude>
      <elevation_m>0</elevation_m>
      <site>Bouy</site>
      <state>--</state>
      <country>--</country>
    </Station>
    <Station>
      <station_id>62143</station_id>
      <latitude>58.3</latitude>
      <longitude>0.4</longitude>
      <elevation_m>0</elevation_m>
      <site>Bouy</site>
      <state>--</state>
      <country>--</country>
    </Station>
    <Station>
      <station_id>62144</station_id>
      <latitude>58</latitude>
      <longitude>6</longitude>
      <elevation_m>0</elevation_m>
      <site>Bouy</site>
      <state>--</state>
      <country>--</country>
    </Station>
    <Station>
      <station_id>62145</station_id>
      <latitude>58.8</latitude>
      <longitude>1.4</longitude>
      <elevation_m>0</elevation_m>
      <site>Bouy</site>
      <state>--</state>
      <country>--</country>
    </Station>
    <Station>
      <station_id>62146</station_id>
      <latitude>58.1</latitude>
      <longitude>1.1</longitude>
      <elevation_m>0</elevation_m>
      <site>Bouy</site>
      <state>--</state>
      <country>--</country>
    </Station>
    <Station>
      <station_id>62147</station_id>
      <latitude>-99.99</latitude>
      <longitude>-99.99</longitude>
      <elevation_m>9999</elevation_m>
      <site>Buoy</site>
      <state>--</state>
      <country>--</country>
    </Station>
    <Station>
      <station_id>62148</station_id>
      <latitude>58.2</latitude>
      <longitude>-1.8</longitude>
      <elevation_m>0</elevation_m>
      <site>Bouy</site>
      <state>--</state>
      <country>--</country>
    </Station>
    <Station>
      <station_id>62149</station_id>
      <latitude>53.7</latitude>
      <longitude>1.1</longitude>
      <elevation_m>4</elevation_m>
      <site>Buoy</site>
      <state>--</state>
      <country>--</country>
    </Station>
    <Station>
      <station_id>62150</station_id>
      <latitude>53.6</latitude>
      <longitude>0.7</longitude>
      <elevation_m>0</elevation_m>
      <site>Bouy</site>
      <state>--</state>
      <country>--</country>
    </Station>
    <Station>
      <station_id>62152</station_id>
      <latitude>54.2</latitude>
      <longitude>2.4</longitude>
      <elevation_m>0</elevation_m>
      <site>Bouy</site>
      <state>--</state>
      <country>--</country>
    </Station>
    <Station>
      <station_id>62153</station_id>
      <latitude>-99.99</latitude>
      <longitude>-99.99</longitude>
      <elevation_m>9999</elevation_m>
      <site>UNK</site>
      <state>--</state>
      <country>--</country>
    </Station>
    <Station>
      <station_id>62154</station_id>
      <latitude>-99.99</latitude>
      <longitude>-99.99</longitude>
      <elevation_m>9999</elevation_m>
      <site>Buoy</site>
      <state>--</state>
      <country>--</country>
    </Station>
    <Station>
      <station_id>62155</station_id>
      <latitude>58.1</latitude>
      <longitude>-3.1</longitude>
      <elevation_m>0</elevation_m>
      <site>Bouy</site>
      <state>--</state>
      <country>--</country>
    </Station>
    <Station>
      <station_id>62163</station_id>
      <latitude>47.5</latitude>
      <longitude>-8.5</longitude>
      <elevation_m>3</elevation_m>
      <site>Brittany Buoy</site>
      <state>--</state>
      <country>GB</country>
    </Station>
    <Station>
      <station_id>62164</station_id>
      <latitude>57.201</latitude>
      <longitude>0.5</longitude>
      <elevation_m>0</elevation_m>
      <site>North Sea</site>
      <state>--</state>
      <country>--</country>
    </Station>
    <Station>
      <station_id>62165</station_id>
      <latitude>54</latitude>
      <longitude>1.1</longitude>
      <elevation_m>4</elevation_m>
      <site>Buoy</site>
      <state>--</state>
      <country>--</country>
    </Station>
    <Station>
      <station_id>62170</station_id>
      <latitude>-99.99</latitude>
      <longitude>-99.99</longitude>
      <elevation_m>9999</elevation_m>
      <site>UNK</site>
      <state>--</state>
      <country>--</country>
    </Station>
    <Station>
      <station_id>62301</station_id>
      <latitude>52.3</latitude>
      <longitude>-4.5</longitude>
      <elevation_m>0</elevation_m>
      <site>Aberporth Bouy</site>
      <state>--</state>
      <country>GB</country>
    </Station>
    <Station>
      <station_id>62303</station_id>
      <latitude>51.08</latitude>
      <longitude>-5</longitude>
      <elevation_m>0</elevation_m>
      <site>Bouy</site>
      <state>--</state>
      <country>--</country>
    </Station>
    <Station>
      <station_id>62304</station_id>
      <latitude>51.1</latitude>
      <longitude>1.8</longitude>
      <elevation_m>4</elevation_m>
      <site>Sandettie Lightship</site>
      <state>--</state>
      <country>GB</country>
    </Station>
    <Station>
      <station_id>62305</station_id>
      <latitude>50.4</latitude>
      <longitude>0</longitude>
      <elevation_m>4</elevation_m>
      <site>Greenwich Lightship</site>
      <state>--</state>
      <country>GB</country>
    </Station>
    <Station>
      <station_id>63055</station_id>
      <latitude>-99.99</latitude>
      <longitude>-99.99</longitude>
      <elevation_m>9999</elevation_m>
      <site>Buoy</site>
      <state>--</state>
      <country>--</country>
    </Station>
    <Station>
      <station_id>63056</station_id>
      <latitude>-99.99</latitude>
      <longitude>-99.99</longitude>
      <elevation_m>9999</elevation_m>
      <site>Buoy</site>
      <state>--</state>
      <country>--</country>
    </Station>
    <Station>
      <station_id>63057</station_id>
      <latitude>-99.99</latitude>
      <longitude>-99.99</longitude>
      <elevation_m>9999</elevation_m>
      <site>Buoy</site>
      <state>--</state>
      <country>--</country>
    </Station>
    <Station>
      <station_id>63101</station_id>
      <latitude>61.3</latitude>
      <longitude>1.7</longitude>
      <elevation_m>0</elevation_m>
      <site>Bouy</site>
      <state>--</state>
      <country>--</country>
    </Station>
    <Station>
      <station_id>63103</station_id>
      <latitude>61.1</latitude>
      <longitude>1.1</longitude>
      <elevation_m>0</elevation_m>
      <site>Bouy</site>
      <state>--</state>
      <country>--</country>
    </Station>
    <Station>
      <station_id>63104</station_id>
      <latitude>61.3</latitude>
      <longitude>1.6</longitude>
      <elevation_m>0</elevation_m>
      <site>Bouy</site>
      <state>--</state>
      <country>--</country>
    </Station>
    <Station>
      <station_id>63105</station_id>
      <latitude>61.1</latitude>
      <longitude>1.7</longitude>
      <elevation_m>0</elevation_m>
      <site>Bouy</site>
      <state>--</state>
      <country>--</country>
    </Station>
    <Station>
      <station_id>63106</station_id>
      <latitude>53.5</latitude>
      <longitude>2</longitude>
      <elevation_m>0</elevation_m>
      <site>Bouy</site>
      <state>--</state>
      <country>--</country>
    </Station>
    <Station>
      <station_id>63107</station_id>
      <latitude>60.8</latitude>
      <longitude>1.4</longitude>
      <elevation_m>0</elevation_m>
      <site>Bouy</site>
      <state>--</state>
      <country>--</country>
    </Station>
    <Station>
      <station_id>63108</station_id>
      <latitude>60.13</latitude>
      <longitude>1.7</longitude>
      <elevation_m>0</elevation_m>
      <site>Bouy</site>
      <state>--</state>
      <country>--</country>
    </Station>
    <Station>
      <station_id>63109</station_id>
      <latitude>59.6</latitude>
      <longitude>1.5</longitude>
      <elevation_m>0</elevation_m>
      <site>Bouy</site>
      <state>--</state>
      <country>--</country>
    </Station>
    <Station>
      <station_id>63110</station_id>
      <latitude>59.5</latitude>
      <longitude>1.5</longitude>
      <elevation_m>0</elevation_m>
      <site>Bouy</site>
      <state>--</state>
      <country>--</country>
    </Station>
    <Station>
      <station_id>63112</station_id>
      <latitude>61.98</latitude>
      <longitude>1</longitude>
      <elevation_m>0</elevation_m>
      <site>Bouy</site>
      <state>--</state>
      <country>--</country>
    </Station>
    <Station>
      <station_id>63113</station_id>
      <latitude>59.1</latitude>
      <longitude>1.4</longitude>
      <elevation_m>0</elevation_m>
      <site>Bouy</site>
      <state>--</state>
      <country>--</country>
    </Station>
    <Station>
      <station_id>63114</station_id>
      <latitude>-99.99</latitude>
      <longitude>-99.99</longitude>
      <elevation_m>9999</elevation_m>
      <site>Buoy</site>
      <state>--</state>
      <country>--</country>
    </Station>
    <Station>
      <station_id>63115</station_id>
      <latitude>58.4</latitude>
      <longitude>-5.6</longitude>
      <elevation_m>0</elevation_m>
      <site>Bouy</site>
      <state>--</state>
      <country>--</country>
    </Station>
    <Station>
      <station_id>63116</station_id>
      <latitude>-99.99</latitude>
      <longitude>-99.99</longitude>
      <elevation_m>9999</elevation_m>
      <site>Buoy</site>
      <state>--</state>
      <country>--</country>
    </Station>
    <Station>
      <station_id>63117</station_id>
      <latitude>60.7</latitude>
      <longitude>1.7</longitude>
      <elevation_m>0</elevation_m>
      <site>Bouy</site>
      <state>--</state>
      <country>--</country>
    </Station>
    <Station>
      <station_id>63118</station_id>
      <latitude>-99.99</latitude>
      <longitude>-99.99</longitude>
      <elevation_m>9999</elevation_m>
      <site>Buoy</site>
      <state>--</state>
      <country>--</country>
    </Station>
    <Station>
      <station_id>64041</station_id>
      <latitude>60.5</latitude>
      <longitude>-2.9</longitude>
      <elevation_m>0</elevation_m>
      <site>Bouy</site>
      <state>--</state>
      <country>--</country>
    </Station>
    <Station>
      <station_id>64045</station_id>
      <latitude>59.1</latitude>
      <longitude>-11.4</longitude>
      <elevation_m>0</elevation_m>
      <site>K5 Bouy</site>
      <state>--</state>
      <country>GB</country>
    </Station>
    <Station>
      <station_id>64046</station_id>
      <latitude>60.7</latitude>
      <longitude>-4.5</longitude>
      <elevation_m>4</elevation_m>
      <site>Buoy</site>
      <state>--</state>
      <country>GB</country>
    </Station>
    <Station>
      <station_id>64049</station_id>
      <latitude>-99.99</latitude>
      <longitude>-99.99</longitude>
      <elevation_m>9999</elevation_m>
      <site>Buoy</site>
      <state>--</state>
      <country>--</country>
    </Station>
    <Station>
      <station_id>AAMC1</station_id>
      <latitude>37.772</latitude>
      <longitude>-122.298</longitude>
      <elevation_m>6</elevation_m>
      <site>Alameda</site>
      <state>CA</state>
      <country>US</country>
    </Station>
    <Station>
      <station_id>ACXS1</station_id>
      <latitude>32.559</latitude>
      <longitude>-80.454</longitude>
      <elevation_m>8</elevation_m>
      <site>ACE Basin Reserve</site>
      <state>SC</state>
      <country>US</country>
    </Station>
    <Station>
      <station_id>ACYN4</station_id>
      <latitude>39.355</latitude>
      <longitude>-74.418</longitude>
      <elevation_m>6</elevation_m>
      <site>Atlantic City</site>
      <state>NJ</state>
      <country>US</country>
    </Station>
    <Station>
      <station_id>ADKA2</station_id>
      <latitude>51.863</latitude>
      <longitude>-176.632</longitude>
      <elevation_m>6</elevation_m>
      <site>Adak Island</site>
      <state>AK</state>
      <country>US</country>
    </Station>
    <Station>
      <station_id>AGCM4</station_id>
      <latitude>42.621</latitude>
      <longitude>-82.527</longitude>
      <elevation_m>174</elevation_m>
      <site>Algonac</site>
      <state>MI</state>
      <country>US</country>
    </Station>
    <Station>
      <station_id>AGGA</station_id>
      <iata_id>AKS</iata_id>
      <latitude>-8.703</latitude>
      <longitude>160.682</longitude>
      <elevation_m>2</elevation_m>
      <site>Auki Arpt</site>
      <state>--</state>
      <country>SB</country>
      <site_type>
        <TAF />
      </site_type>
    </Station>
    <Station>
      <station_id>AGGC</station_id>
      <iata_id>CHY</iata_id>
      <latitude>-6.712</latitude>
      <longitude>156.396</longitude>
      <elevation_m>1</elevation_m>
      <site>Choiseul Bay Arpt</site>
      <state>CH</state>
      <country>SB</country>
      <site_type>
        <METAR />
        <TAF />
      </site_type>
    </Station>
    <Station>
      <station_id>AGGK</station_id>
      <iata_id>IRA</iata_id>
      <latitude>-10.45</latitude>
      <longitude>161.898</longitude>
      <elevation_m>23</elevation_m>
      <site>Kirakira Arpt</site>
      <state>--</state>
      <country>SB</country>
      <site_type>
        <TAF />
      </site_type>
    </Station>
    <Station>
      <station_id>AGGN</station_id>
      <iata_id>GZO</iata_id>
      <latitude>-8.098</latitude>
      <longitude>156.864</longitude>
      <elevation_m>4</elevation_m>
      <site>Nusatupe/Gizo Arpt</site>
      <state>--</state>
      <country>SB</country>
      <site_type>
        <TAF />
      </site_type>
    </Station>
    <Station>
      <station_id>AGGR</station_id>
      <iata_id>RNL</iata_id>
      <latitude>-11.55</latitude>
      <longitude>160.063</longitude>
      <elevation_m>11</elevation_m>
      <site>Rennell Tingoa Arpt</site>
      <state>--</state>
      <country>SB</country>
      <site_type>
        <TAF />
      </site_type>
    </Station>
    <Station>
      <station_id>AGMW3</station_id>
      <latitude>44.61</latitude>
      <longitude>-87.43</longitude>
      <elevation_m>179</elevation_m>
      <site>Algoma City</site>
      <state>WI</state>
      <country>US</country>
    </Station>
    <Station>
      <station_id>AGXC1</station_id>
      <latitude>-99.99</latitude>
      <longitude>-99.99</longitude>
      <elevation_m>9999</elevation_m>
      <site>CMAN</site>
      <state>--</state>
      <country>--</country>
    </Station>
    <Station>
      <station_id>AJXA2</station_id>
      <latitude>-99.99</latitude>
      <longitude>-99.99</longitude>
      <elevation_m>9999</elevation_m>
      <site>CMAN</site>
      <state>--</state>
      <country>--</country>
    </Station>
    <Station>
      <station_id>AKXA2</station_id>
      <latitude>-99.99</latitude>
      <longitude>-99.99</longitude>
      <elevation_m>9999</elevation_m>
      <site>CMAN</site>
      <state>--</state>
      <country>--</country>
    </Station>
    <Station>
      <station_id>ALIA2</station_id>
      <latitude>56.898</latitude>
      <longitude>-154.247</longitude>
      <elevation_m>6</elevation_m>
      <site>Alitak</site>
      <state>AK</state>
      <country>US</country>
    </Station>
    <Station>
      <station_id>ALXN6</station_id>
      <latitude>44.33</latitude>
      <longitude>-75.933</longitude>
      <elevation_m>76</elevation_m>
      <site>Alexandria Bay</site>
      <state>NY</state>
      <country>US</country>
    </Station>
    <Station>
      <station_id>AMAA2</station_id>
      <latitude>58.915</latitude>
      <longitude>-151.952</longitude>
      <elevation_m>33</elevation_m>
      <site>East Amatuli Light</site>
      <state>AK</state>
      <country>US</country>
    </Station>
    <Station>
      <station_id>AMRL1</station_id>
      <latitude>29.45</latitude>
      <longitude>-91.338</longitude>
      <elevation_m>6</elevation_m>
      <site>Amerada Pass</site>
      <state>LA</state>
      <country>US</country>
    </Station>
    <Station>
      <station_id>ANAU</station_id>
      <latitude>-0.53</latitude>
      <longitude>166.92</longitude>
      <elevation_m>6</elevation_m>
      <site>Nauru Island</site>
      <state>--</state>
      <country>NR</country>
    </Station>
    <Station>
      <station_id>ANCF1</station_id>
      <latitude>28.193</latitude>
      <longitude>-82.789</longitude>
      <elevation_m>0</elevation_m>
      <site>Anclote Gulf Park</site>
      <state>FL</state>
      <country>US</country>
    </Station>
    <Station>
      <station_id>ANMF1</station_id>
      <latitude>27.538</latitude>
      <longitude>-82.739</longitude>
      <elevation_m>7</elevation_m>
      <site>Anna Maria</site>
      <state>FL</state>
      <country>US</country>
    </Station>
    <Station>
      <station_id>ANMN6</station_id>
      <latitude>42.018</latitude>
      <longitude>-73.917</longitude>
      <elevation_m>4</elevation_m>
      <site>Hudson River Reserve</site>
      <state>NY</state>
      <country>US</country>
    </Station>
    <Station>
      <station_id>ANPT2</station_id>
      <latitude>-99.99</latitude>
      <longitude>-99.99</longitude>
      <elevation_m>9999</elevation_m>
      <site>CMAN</site>
      <state>--</state>
      <country>--</country>
    </Station>
    <Station>
      <station_id>ANTA2</station_id>
      <latitude>61.238</latitude>
      <longitude>-149.89</longitude>
      <elevation_m>0</elevation_m>
      <site>Anchorage</site>
      <state>AK</state>
      <country>US</country>
    </Station>
    <Station>
      <station_id>ANVC1</station_id>
      <latitude>38.913</latitude>
      <longitude>-123.708</longitude>
      <elevation_m>0</elevation_m>
      <site>Arena Cove</site>
      <state>CA</state>
      <country>US</country>
    </Station>
    <Station>
      <station_id>ANYN</station_id>
      <iata_id>INU</iata_id>
      <latitude>-0.547</latitude>
      <longitude>166.919</longitude>
      <elevation_m>7</elevation_m>
      <site>Nauru Intl</site>
      <state>--</state>
      <country>NR</country>
      <site_type>
        <METAR />
        <TAF />
      </site_type>
    </Station>
    <Station>
      <station_id>APAM2</station_id>
      <latitude>38.983</latitude>
      <longitude>-76.48</longitude>
      <elevation_m>0</elevation_m>
      <site>Annapolis</site>
      <state>MD</state>
      <country>US</country>
    </Station>
    <Station>
      <station_id>APCF1</station_id>
      <latitude>29.727</latitude>
      <longitude>-84.982</longitude>
      <elevation_m>4</elevation_m>
      <site>Apalachicola</site>
      <state>FL</state>
      <country>US</country>
    </Station>
    <Station>
      <station_id>APMA2</station_id>
      <latitude>-99.99</latitude>
      <longitude>-99.99</longitude>
      <elevation_m>9999</elevation_m>
      <site>CMAN</site>
      <state>--</state>
      <country>--</country>
    </Station>
    <Station>
      <station_id>APNM4</station_id>
      <latitude>45.06</latitude>
      <longitude>-83.424</longitude>
      <elevation_m>177</elevation_m>
      <site>Alpena Harbor(LGT)</site>
      <state>MI</state>
      <country>US</country>
    </Station>
    <Station>
      <station_id>APRP7</station_id>
      <latitude>13.442</latitude>
      <longitude>144.653</longitude>
